,ABS Active,ABS Enabled,AID Allow Tire Blankets,AID Auto Blip,AID Auto Clutch,AID Auto Shift,AID Fuel Rate,AID Ideal Line,AID Mech Damage,AID Stability,AID Tire Wear Rate,Air Density,Air Temp,Ballast,Best Lap Delta,Best Lap Time,Brake Bias,Brake Pos,Brake Temp FL,Brake Temp FR,Brake Temp RL,Brake Temp RR,CG Accel Lateral,CG Accel Longitudinal,CG Accel Vertical,CG Height,Camber FL,Camber FR,Camber RL,Camber RR,Car Coord X,Car Coord Y,Car Coord Z,Car Damage Front,Car Damage Left,Car Damage Rear,Car Damage Right,Car Pos Norm,Caster FL,Caster FR,Chassis Pitch Angle,Chassis Pitch Rate,Chassis Roll Angle,Chassis Roll Rate,Chassis Velocity X,Chassis Velocity Y,Chassis Velocity Z,Chassis Yaw Rate,Clutch Pos,DRS Active,DRS Available,Drive Train Speed,ERS Heat Charging,ERS Is Charging,ERS Max Energy,ERS Power Level,ERS Recovery Level,Engine Brake Setting,Engine Limiter,Engine RPM,Flags,Fuel Level,Gear,Ground Speed,HR Sample Clock,In Pit,KERS Charge,KERS Deployed Energy,KERS Input,KERS Max Energy,LR Sample Clock,Lap Invalidated,Lap Time,Lap Time2,Last Lap Time,Last Sector Time,MR Sample Clock,Max Fuel,Max Power,Max RPM,Max Sus Travel FL,Max Sus Travel FR,Max Sus Travel RL,Max Sus Travel RR,Max Torque,Max Turbo Boost,Num Tires Off Track,Penalties Enabled,Position,Raw Data Sample Rate,Ride Height FL,Ride Height FR,Ride Height RL,Ride Height RR,Road Temp,Self Align Torque FL,Self Align Torque FR,Self Align Torque RL,Self Align Torque RR,Session Lap Count,Session Time Left,Steering Angle,Surface Grip,Suspension Travel FL,Suspension Travel FR,Suspension Travel RL,Suspension Travel RR,TC Active,TC Enabled,Throttle Pos,Tire Dirt Level FL,Tire Dirt Level FR,Tire Dirt Level RL,Tire Dirt Level RR,Tire Load FL,Tire Load FR,Tire Load RL,Tire Load RR,Tire Loaded Radius FL,Tire Loaded Radius FR,Tire Loaded Radius RL,Tire Loaded Radius RR,Tire Pressure FL,Tire Pressure FR,Tire Pressure RL,Tire Pressure RR,Tire Radius FL,Tire Radius FR,Tire Radius RL,Tire Radius RR,Tire Rubber Grip FL,Tire Rubber Grip FR,Tire Rubber Grip RL,Tire Rubber Grip RR,Tire Slip Angle FL,Tire Slip Angle FR,Tire Slip Angle RL,Tire Slip Angle RR,Tire Slip Ratio FL,Tire Slip Ratio FR,Tire Slip Ratio RL,Tire Slip Ratio RR,Tire Temp Core FL,Tire Temp Core FR,Tire Temp Core RL,Tire Temp Core RR,Tire Temp Inner FL,Tire Temp Inner FR,Tire Temp Inner RL,Tire Temp Inner RR,Tire Temp Middle FL,Tire Temp Middle FR,Tire Temp Middle RL,Tire Temp Middle RR,Tire Temp Outer FL,Tire Temp Outer FR,Tire Temp Outer RL,Tire Temp Outer RR,Toe In FL,Toe In FR,Toe In RL,Toe In RR,Turbo Boost,Wheel Angular Speed FL,Wheel Angular Speed FR,Wheel Angular Speed RL,Wheel Angular Speed RR,Wind Direction,Wind Speed
0,0.0,0.0,0.0,1.0,1.0,0.0,0.0,1.0,0.0,100.0,1.0,1.1856,26.0,0.0,0.0,0.0,59.99999,0.0,26.0,26.0,26.0,26.0,-0.06299999999999994,0.2964,0.0688,293.854,-2.7168,-2.654888888888889,-1.5189,-1.5579,-275.45,216.2975,190.986,0.0,0.0,0.0,0.0,0.0017333333333333645,-5.498166666666667,-5.498166666666667,-0.5446,1.3605,-0.007777777777777661,-0.8640000000000001,65.537,-0.0287,-0.211475,0.9100000000000001,100.0,1.0,1.0,202.32999999999998,0.0,0.0,0.0,0.0,0.0,0.0,0.0,8576.0,0.0,55.0,5.0,235.90333333333334,0.0,0.0,0.0,0.0,0.0,0.0,0.0,0.0,0.006000000000000227,0.006000000000000227,0.0,0.0,0.0,55.0,616.79921,10000.0,85.0,85.0,85.0,85.0,395.0,0.0,0.0,0.0,1.0,20.0,52.551,52.551,49.225,49.225,34.0,-25.5325,24.052,-30.236666666666665,25.5925,0.0,1783.652,0.865000000000002,100.0,27.636,27.225,40.61,40.618,0.0,0.0,100.0,0.0,0.0,0.0,0.0,2979.0,3398.6,4167.25,3985.6,305.7835,304.0135,314.69525,314.89525,21.78011111111111,20.5157,21.7762,21.3029,314.99999,314.99999,324.99998,324.99998,99.55898571428571,99.50721666666666,99.56555714285714,99.54484285714285,0.012249999999999872,-0.11066666666666669,-0.14816666666666667,0.07783333333333332,-0.05666666666667197,-0.03999999999999915,1.5465,1.557,37.126000000000005,29.2235,37.101,34.143,56.301,34.497,59.195,51.501,54.216,33.658500000000004,57.817499999999995,49.864,53.384,33.213499999999996,57.7815,49.29066666666667,-0.014499999999999957,-0.13749999999999996,0.11223000000000001,0.10897000000000001,0.0,205.4,205.29500000000002,202.32999999999998,202.32999999999998,0.0,0.0
1,0.0,0.0,0.0,1.0,1.0,0.0,0.0,1.0,0.0,100.0,1.0,1.1856,26.0,0.0,0.0,0.0,59.999996,0.0,26.0,26.0,26.0,26.0,-0.09899999999999998,0.31620000000000004,0.20642,292.923,-2.635,-2.765888888888889,-1.52785,-1.5522,-272.1,216.29250000000002,190.966,0.0,0.0,0.0,0.0,0.003666666666666596,-5.498166666666667,-5.498166666666667,-0.5015000000000001,-0.778,-0.05744444444444419,-1.1440000000000001,65.691,-0.0458,-0.19865000000000002,1.402000000000001,100.0,1.0,1.0,202.51,0.0,0.0,0.0,0.0,0.0,0.0,0.0,8583.6,0.0,55.0,5.0,236.45666666666668,1.0,0.0,0.0,0.0,0.0,0.0,0.0,0.0,0.05699999999999861,0.05699999999999861,0.0,0.0,1.0,55.0,616.79921,10000.0,85.000001,85.000001,85.000001,85.000001,395.0,0.0,0.0,0.0,1.0,166.665,53.36,53.36,48.263999999999996,48.263999999999996,34.0,-27.4725,18.644,-33.77333333333333,29.0975,0.0,1783.601,0.9100000000000001,100.0,27.63,27.085,42.837,41.831,0.0,0.0,100.0,0.0,0.0,0.0,0.0,3162.5714285714284,2726.0,4283.875,4709.5,305.303,306.1435,314.3855,313.10175,21.79,20.5208,21.787,21.312,314.999998,314.999998,324.999988,324.999988,99.55898571428571,99.50723333333333,99.5657,99.545,-0.009749999999999925,-0.1326666666666667,-0.18016666666666667,0.03833333333333334,-0.07499999999999574,-0.046666666666666856,1.413,1.491,37.187,29.255,37.169,34.2,56.284,34.537,59.2395,51.567,54.201,33.695499999999996,57.8595,49.9275,53.367999999999995,33.249,57.820499999999996,49.352666666666664,-0.0010000000000000009,-0.14400000000000013,0.10663500000000001,0.10697000000000001,0.0,205.845,205.71,202.51,202.51,0.0,0.0
2,0.0,0.0,0.0,1.0,1.0,0.0,0.0,1.0,0.0,100.0,1.0,1.1856,26.0,0.0,0.0,0.0,59.999996,0.0,26.0,26.0,26.0,26.0,-0.14149999999999996,0.2863,-0.07808,293.533,-2.6025,-2.791888888888889,-1.49185,-1.6067,-268.75,216.285,190.947,0.0,0.0,0.0,0.0,0.005633333333333379,-5.498166666666667,-5.498166666666667,-0.547,0.244,-0.04444444444444429,2.721,65.834,-0.0698,-0.250375,1.5419999999999998,100.0,1.0,1.0,203.38666666666666,0.0,0.0,0.0,0.0,0.0,0.0,0.0,8620.8,0.0,55.0,5.0,236.97333333333333,0.0,0.0,0.0,0.0,0.0,0.0,0.0,0.0,0.10800000000000054,0.10800000000000054,0.0,0.0,0.0,55.0,616.79921,10000.0,85.000001,85.000001,85.000001,85.000001,395.0,0.0,0.0,0.0,1.0,166.665,52.338,52.338,49.973,49.973,34.0,-29.015,20.644,-29.38,20.75,0.0,1783.551,0.7650000000000006,100.0,28.541,27.042,42.688,41.412,0.0,0.0,100.0,0.0,0.0,0.0,0.0,3276.4285714285716,3000.4,3758.75,3778.9,304.683,305.35625,315.6205,315.5435,21.80011111111111,20.5258,21.7975,21.3207,314.999998,314.999998,324.999988,324.999988,99.55898571428571,99.50726666666667,99.56584285714285,99.54512857142858,-0.016249999999999876,-0.1413333333333333,-0.22116666666666665,0.0071666666666666675,-0.046666666666666856,-0.030000000000001137,1.6235,1.675,37.251000000000005,29.286,37.233999999999995,34.2545,56.272,34.576,59.277,51.624,54.189,33.7315,57.8945,49.9825,53.355000000000004,33.283,57.8525,49.406333333333336,-0.01849999999999996,-0.13400000000000012,0.105575,0.10157500000000001,0.0,206.29000000000002,206.14,203.38666666666666,203.38666666666666,0.0,0.0
3,0.0,0.0,0.0,1.0,1.0,0.0,0.0,1.0,0.0,100.0,1.0,1.1856,26.0,0.0,0.0,0.0,59.999996,0.0,26.0,26.0,26.0,26.0,-0.13724999999999998,0.28880000000000017,-0.0497,293.35,-2.7291499999999997,-2.688888888888889,-1.5136,-1.5933000000000002,-265.39,216.2725,190.927375,0.0,0.0,0.0,0.0,0.0075666666666666105,-5.498166666666667,-5.498166666666667,-0.5095000000000001,0.18599999999999994,-0.011333333333333417,-1.161,65.985,-0.0839,-0.20322500000000002,1.2479999999999993,100.0,1.0,1.0,203.54666666666668,0.0,0.0,0.0,0.0,0.0,0.0,0.0,8627.6,0.0,55.0,5.0,237.51666666666665,1.0,0.0,0.0,0.0,0.0,0.0,0.0,0.0,0.15899999999999892,0.15899999999999892,0.0,0.0,1.0,55.0,616.79921,10000.0,85.000001,85.000001,85.000001,85.000001,395.0,0.0,0.0,0.0,1.0,166.665,53.574,53.574,48.004,48.004,34.0,-25.615,17.772,-34.92666666666666,24.895,0.0,1783.5,0.6649999999999991,100.0,27.971,27.168,42.537,41.682,0.0,0.0,100.0,0.0,0.0,0.0,0.0,2835.285714285714,2788.5,4332.25,4218.8,306.2005,305.774,314.3045,314.319,21.80977777777778,20.5309,21.808,21.3296,314.999998,314.999998,324.999988,324.999988,99.559,99.50726666666667,99.56598571428572,99.54527142857143,-0.025499999999999856,-0.15666666666666673,-0.20450000000000002,0.018833333333333334,-0.02499999999999858,-0.030000000000001137,1.4855,1.524,37.311,29.3185,37.3,34.31,56.254999999999995,34.6185,59.3165,51.6875,54.172,33.7705,57.931,50.043,53.338,33.320499999999996,57.8865,49.466,-0.026000000000000023,-0.12549999999999994,0.10350500000000001,0.11216000000000001,0.0,206.735,206.66,203.54666666666668,203.54666666666668,0.0,0.0
4,0.0,0.0,0.0,1.0,1.0,0.0,0.0,1.0,0.0,100.0,1.0,1.1856,26.0,0.0,0.0,0.0,59.999996,0.0,26.0,26.0,26.0,26.0,-0.15187499999999998,0.29410000000000003,-0.03924,293.594,-2.65,-2.751666666666667,-1.5215,-1.6034000000000002,-262.02,216.2575,190.907625,0.0,0.0,0.0,0.0,0.009533333333333394,-5.498166666666667,-5.498166666666667,-0.5478000000000001,-0.546,-0.08177777777777795,-0.3820000000000001,66.131,-0.0853,-0.23985,1.1660000000000004,100.0,1.0,1.0,204.17666666666668,0.0,0.0,0.0,0.0,0.0,0.0,0.0,8654.4,0.0,55.0,5.0,238.04333333333335,0.0,0.0,0.0,0.0,0.0,0.0,0.0,0.0,0.21000000000000085,0.21000000000000085,0.0,0.0,0.0,55.0,616.79921,10000.0,85.000001,85.000001,85.000001,85.000001,395.0,0.0,0.0,0.0,1.0,166.665,52.872,52.872,48.965,48.965,34.0,-29.1925,20.088,-31.34,20.415,0.0,1783.449,0.5899999999999999,100.0,27.917,26.821,42.900999999999996,41.448,0.0,0.0,100.0,0.0,0.0,0.0,0.0,3249.714285714286,2988.3,4003.875,3667.0,304.94,305.3545,315.0105,315.727,21.819555555555556,20.5361,21.8186,21.3384,314.999998,314.999998,324.999988,324.999988,99.559,99.5073,99.56612857142858,99.54541428571429,-0.021749999999999936,-0.14533333333333331,-0.20033333333333334,0.011166666666666667,-0.030000000000001137,-0.07000000000000028,1.583,1.627,37.372,29.3505,37.366,34.3655,56.236999999999995,34.6605,59.3575,51.7455,54.156,33.809,57.9695,50.0985,53.321,33.3575,57.922,49.52033333333333,-0.02400000000000002,-0.12349999999999994,0.10536500000000001,0.09911500000000001,0.0,207.155,207.075,204.17666666666668,204.17666666666668,0.0,0.0
5,0.0,0.0,0.0,1.0,1.0,0.0,0.0,1.0,0.0,100.0,1.0,1.1856,26.0,0.0,0.0,0.0,59.999996,0.0,26.0,26.0,26.0,26.0,-0.126625,0.29469999999999996,0.01166,293.488,-2.6771,-2.760888888888889,-1.51275,-1.5836999999999999,-258.64,216.24,190.88725,0.0,0.0,0.0,0.0,0.011499999999999955,-5.498166666666667,-5.498166666666667,-0.5331,0.2875,-0.08022222222222242,-0.19399999999999995,66.27799999999999,-0.08940000000000001,-0.2116,1.0660000000000007,100.0,1.0,1.0,204.53,0.0,0.0,0.0,0.0,0.0,0.0,0.0,8669.2,0.0,55.0,5.0,238.57,1.0,0.0,0.0,0.0,0.0,0.0,0.0,0.0,0.26099999999999923,0.26099999999999923,0.0,0.0,1.0,55.0,616.79921,10000.0,85.000001,85.000001,85.000001,85.000001,395.0,0.0,0.0,0.0,1.0,166.665,53.36,53.36,48.706,48.706,34.0,-28.4575,19.152,-34.849999999999994,22.5425,0.0,1783.398,0.16499999999999915,100.0,27.781,26.803,42.650999999999996,41.346000000000004,0.0,0.0,100.0,0.0,0.0,0.0,0.0,3208.4285714285716,2785.4,4240.875,4081.0,305.19,305.86325,314.55975,314.682,21.829444444444444,20.5411,21.8291,21.3472,314.999998,314.999998,324.999988,324.999988,99.559,99.50731666666667,99.56627142857143,99.54554285714286,-0.012750000000000039,-0.1339999999999999,-0.22266666666666665,-0.0025,-0.045000000000001705,-0.05333333333332746,1.498,1.5565,37.434,29.381999999999998,37.432,34.42,56.223,34.7005,59.3975,51.8045,54.141999999999996,33.846000000000004,58.007,50.155,53.307,33.393,57.9565,49.57533333333333,-0.058499999999999996,-0.08850000000000002,0.109075,0.10577500000000001,0.0,207.66,207.565,204.53,204.53,0.0,0.0
6,0.0,0.0,0.0,1.0,1.0,0.0,0.0,1.0,0.0,100.0,1.0,1.1856,26.0,0.0,0.0,0.0,59.999996,0.0,26.0,26.0,26.0,26.0,-0.11749999999999994,0.2914000000000001,0.004260000000000001,293.381,-2.63785,-2.7973333333333334,-1.5559,-1.5838999999999999,-255.65,216.22,190.869125,0.0,0.0,0.0,0.0,0.01323333333333332,-5.498166666666667,-5.498166666666667,-0.5309,0.10599999999999998,-0.060555555555555696,0.905,66.407,-0.08310000000000001,-0.2152,0.652000000000001,100.0,1.0,1.0,204.94666666666666,0.0,0.0,0.0,0.0,0.0,0.0,0.0,8686.9,0.0,55.0,5.0,239.0366666666667,0.0,0.0,0.0,0.0,0.0,0.0,0.0,0.0,0.30600000000000094,0.30600000000000094,0.0,0.0,0.0,55.0,616.79921,10000.0,85.000001,85.000001,85.000001,85.000001,395.0,0.0,0.0,0.0,1.0,166.665,53.085,53.085,48.629999999999995,48.629999999999995,34.0,-26.1725,21.53,-32.379999999999995,24.012500000000003,0.0,1783.352,-0.03500000000000014,100.0,27.908,26.813,42.821,41.564,0.0,0.0,100.0,0.0,0.0,0.0,0.0,3087.857142857143,2972.2,4077.75,4053.8,305.3205,305.35275,314.8875,314.826,21.83811111111111,20.5457,21.8384,21.3551,314.999998,314.999998,324.999988,324.999988,99.559,99.50731666666667,99.56638571428572,99.54567142857142,0.01200000000000001,-0.11799999999999988,-0.19516666666666665,0.0325,-0.04999999999999716,-0.05833333333333002,1.5385,1.5765,37.488,29.4105,37.489999999999995,34.4695,56.21,34.736,59.4325,51.859,54.129000000000005,33.8785,58.039500000000004,50.207499999999996,53.293,33.424,57.987,49.626666666666665,-0.07399999999999995,-0.08099999999999996,0.10736000000000001,0.108475,0.0,208.04500000000002,207.965,204.94666666666666,204.94666666666666,0.0,0.0
7,0.0,0.0,0.0,1.0,1.0,0.0,0.0,1.0,0.0,100.0,1.0,1.1856,26.0,0.0,0.0,0.0,59.999996,0.0,26.0,26.0,26.0,26.0,-0.06662499999999993,0.28980000000000006,0.020819999999999998,293.198,-2.6148,-2.7488888888888887,-1.5186000000000002,-1.6223,-252.26,216.1975,190.84875,0.0,0.0,0.0,0.0,0.015199999999999991,-5.498166666666667,-5.498166666666667,-0.5344,0.026000000000000023,-0.04933333333333367,-0.17599999999999993,66.553,-0.0651,-0.22465000000000002,0.4039999999999999,100.0,1.0,1.0,205.37333333333333,0.0,0.0,0.0,0.0,0.0,0.0,0.0,8705.0,0.0,55.0,5.0,239.56333333333333,1.0,0.0,0.0,0.0,0.0,0.0,0.0,0.0,0.3569999999999993,0.3569999999999993,0.0,0.0,1.0,55.0,616.79921,10000.0,85.000001,85.000001,85.000001,85.000001,395.0,0.0,0.0,0.0,1.0,166.665,52.795,52.795,48.798,48.798,34.0,-26.7225,21.75,-31.36,24.93,0.0,1783.301,-0.19000000000000128,100.0,27.846,27.012,42.736000000000004,41.893,0.0,0.0,100.0,0.0,0.0,0.0,0.0,3253.5714285714284,2937.5,4068.375,4019.2,304.931,305.267,314.92575,314.77325,21.848,20.5509,21.8489,21.3641,314.999998,314.999998,324.999988,324.999988,99.559,99.50733333333334,99.56654285714286,99.54581428571429,0.028249999999999886,-0.10033333333333316,-0.18516666666666667,0.0395,-0.04999999999999716,-0.045000000000001705,1.5250000000000001,1.545,37.55,29.442999999999998,37.556,34.5255,56.195,34.7755,59.472,51.920500000000004,54.114999999999995,33.915,58.076499999999996,50.266,53.278,33.459,58.021,49.684,-0.09399999999999997,-0.05699999999999994,0.10794500000000001,0.11107000000000002,0.0,208.45499999999998,208.41500000000002,205.37333333333333,205.37333333333333,0.0,0.0
8,0.0,0.0,0.0,1.0,1.0,0.0,0.0,1.0,0.0,100.0,1.0,1.1856,26.0,0.0,0.0,0.0,59.999996,0.0,26.0,26.0,26.0,26.0,-0.030000000000000027,0.278,-0.051660000000000005,293.488,-2.6972,-2.719222222222222,-1.4984,-1.5758,-248.67000000000002,216.17000000000002,190.826875,0.0,0.0,0.0,0.0,0.017299999999999982,-5.498166666666667,-5.498166666666667,-0.5384,-0.587,-0.033333333333333215,-0.5680000000000001,66.707,-0.044700000000000004,-0.2182,0.013999999999999346,100.0,1.0,1.0,205.8,0.0,0.0,0.0,0.0,0.0,0.0,0.0,8723.1,0.0,55.0,5.0,240.11666666666667,0.0,0.0,0.0,0.0,0.0,0.0,0.0,0.0,0.41100000000000136,0.41100000000000136,0.0,0.0,0.0,55.0,616.79921,10000.0,85.000001,85.000001,85.000001,85.000001,395.0,0.0,0.0,0.0,1.0,166.665,53.558,53.558,48.325,48.325,34.0,-24.3975,22.188,-29.72,26.0375,0.0,1783.247,-0.36499999999999844,100.0,27.38,26.953,42.691,41.993,0.0,0.0,100.0,0.0,0.0,0.0,0.0,3031.857142857143,2930.1,4106.875,4045.8,305.76,305.394,314.81075,314.7035,21.85822222222222,20.5564,21.86,21.3736,314.999998,314.999998,324.999988,324.999988,99.55901428571428,99.50735,99.56668571428571,99.54595714285715,0.046250000000000124,-0.07833333333333314,-0.14916666666666667,0.06816666666666667,-0.04833333333333201,-0.02833333333332888,1.5155,1.528,37.614000000000004,29.4775,37.625,34.585,56.177,34.816,59.5135,51.9845,54.098,33.9525,58.115,50.328,53.26,33.495,58.0565,49.74466666666667,-0.10150000000000003,-0.0475000000000001,0.09872500000000001,0.11063,0.0,208.92000000000002,208.905,205.8,205.8,0.0,0.0
9,0.0,0.0,0.0,1.0,1.0,0.0,0.0,1.0,0.0,100.0,1.0,1.1856,26.0,0.0,0.0,0.0,59.999996,0.0,26.0,26.0,26.0,26.0,-0.033625000000000016,0.28680000000000017,0.04002,293.091,-2.62215,-2.721,-1.55535,-1.5548000000000002,-245.66,216.14499999999998,190.80825,0.0,0.0,0.0,0.0,0.019033333333333347,-5.498166666666667,-5.498166666666667,-0.5411,0.702,-0.032444444444444276,0.843,66.832,-0.027800000000000002,-0.21530000000000002,-0.20399999999999974,100.0,1.0,1.0,206.2866666666667,0.0,0.0,0.0,0.0,0.0,0.0,0.0,8743.7,0.0,55.0,5.0,240.56666666666666,1.0,0.0,0.0,0.0,0.0,0.0,0.0,0.0,0.4559999999999995,0.4559999999999995,0.0,0.0,1.0,55.0,616.79921,10000.0,85.000001,85.000001,85.000001,85.000001,395.0,0.0,0.0,0.0,1.0,166.665,52.353,52.353,49.149,49.149,34.0,-24.6025,24.738,-28.496666666666666,27.2875,0.0,1783.203,-0.5500000000000007,100.0,28.048000000000002,27.244,42.428,41.874,0.0,0.0,100.0,0.0,0.0,0.0,0.0,3262.4285714285716,3094.5,4000.125,4107.7,304.791,304.98925,315.1505,314.7235,21.867,20.5611,21.8692,21.3815,314.999998,314.999998,324.999988,324.999988,99.55902857142857,99.50735,99.56681428571429,99.54608571428571,0.08174999999999999,-0.04966666666666675,-0.13533333333333333,0.09533333333333333,-0.03999999999999915,-0.06499999999999773,1.5765,1.559,37.669,29.506999999999998,37.682,34.634,56.166,34.8505,59.545,52.0375,54.087,33.9845,58.1445,50.3785,53.248999999999995,33.5255,58.083,49.794,-0.118,-0.03200000000000003,0.1096,0.10906,0.0,209.325,209.335,206.2866666666667,206.2866666666667,0.0,0.0
10,0.0,0.0,0.0,1.0,1.0,0.0,0.0,1.0,0.0,100.0,1.0,1.1856,26.0,0.0,0.0,0.0,59.999996,0.0,26.0,26.0,26.0,26.0,0.01737499999999992,0.29690000000000016,0.04598,293.045,-2.7047,-2.695777777777778,-1.5418,-1.5424,-242.05,216.1175,190.786375,0.0,0.0,0.0,0.0,0.021133333333333337,-5.498166666666667,-5.498166666666667,-0.5228,-0.8029999999999999,0.015111111111111075,1.629,66.988,-0.005200000000000001,-0.21085,-0.5379999999999994,100.0,1.0,1.0,206.56,0.0,0.0,0.0,0.0,0.0,0.0,0.0,8755.3,0.0,55.0,5.0,241.13,0.0,0.0,0.0,0.0,0.0,0.0,1.0,0.0,0.509999999999998,0.509999999999998,0.0,0.0,0.0,55.0,616.79921,10000.0,85.000001,85.000001,85.000001,85.000001,395.0,0.0,0.0,0.0,1.0,166.665,53.497,53.497,47.729,47.729,34.0,-21.21,24.317999999999998,-28.693333333333335,30.212500000000002,0.0,1783.148,-0.6050000000000004,100.0,27.709,27.156,42.912,42.652,0.0,0.0,100.0,0.0,0.0,0.0,0.0,2822.857142857143,2998.8,4175.25,4307.5,306.2325,305.36225,314.581,314.154,21.877333333333333,20.5667,21.8804,21.3912,314.999998,314.999998,324.999988,324.999988,99.55904285714286,99.50735,99.56697142857143,99.54624285714286,0.08524999999999983,-0.030000000000000027,-0.10250000000000001,0.114,-0.054999999999999716,-0.06333333333333258,1.4925,1.4765,37.733000000000004,29.542,37.753,34.695,56.150999999999996,34.888999999999996,59.588,52.1055,54.074,34.019999999999996,58.1845,50.444,53.233999999999995,33.5595,58.12,49.858333333333334,-0.118,-0.026499999999999968,0.104855,0.10841500000000001,0.0,209.76999999999998,209.8,206.56,206.56,0.0,0.0
11,0.0,0.0,0.0,1.0,1.0,0.0,0.0,1.0,0.0,100.0,1.0,1.1856,26.0,0.0,0.0,0.0,59.999996,0.0,26.0,26.0,26.0,26.0,0.02662500000000012,0.27180000000000004,-0.0728,293.549,-2.7051,-2.6862222222222223,-1.5887,-1.5241,-238.82999999999998,216.09,190.76675,0.0,0.0,0.0,0.0,0.022599999999999953,-5.498166666666667,-5.498166666666667,-0.5619000000000001,-0.08949999999999991,0.03288888888888897,0.256,67.118,0.0119,-0.23617500000000002,-0.6639999999999997,100.0,1.0,1.0,207.26666666666665,0.0,0.0,0.0,0.0,0.0,0.0,0.0,8785.3,0.0,55.0,5.0,241.59666666666666,1.0,0.0,0.0,0.0,0.0,0.0,1.0,0.0,0.5579999999999998,0.5579999999999998,0.0,0.0,1.0,55.0,616.79921,10000.0,85.000001,85.000001,85.000001,85.000001,395.0,0.0,0.0,0.0,1.0,333.33500000000004,52.841,52.841,49.316,49.316,34.0,-21.7,26.482,-24.183333333333334,27.11,0.0,1783.099,-0.6400000000000006,100.0,27.547,27.437,42.231,42.483000000000004,0.0,0.0,100.0,0.0,0.0,0.0,0.0,3001.5714285714284,3180.8,3714.625,3889.9,305.66,304.7285,315.83425,315.20875,21.886333333333333,20.5718,21.8901,21.3996,314.999998,314.999998,324.999988,324.999988,99.55904285714286,99.50736666666667,99.5671,99.54637142857143,0.11249999999999982,-0.01966666666666672,-0.0885,0.14033333333333334,-0.03833333333332689,-0.06499999999999773,1.623,1.6185,37.79,29.573999999999998,37.813,34.748,56.138,34.9245,59.619,52.162,54.061,34.053,58.213499999999996,50.498,53.22,33.591,58.146,49.91133333333333,-0.125,-0.02950000000000008,0.106605,0.10253000000000001,0.0,210.155,210.21,207.26666666666665,207.26666666666665,0.0,0.0
12,0.0,0.0,0.0,1.0,1.0,0.0,0.0,1.0,0.0,100.0,1.0,1.1856,26.0,0.0,0.0,0.0,59.999996,0.0,26.0,26.0,26.0,26.0,0.06537499999999996,0.3037000000000001,0.0375,292.877,-2.7264,-2.681111111111111,-1.55705,-1.5267,-235.4,216.065,190.74475,0.0,0.0,0.0,0.0,0.025466666666666526,-5.498166666666667,-5.498166666666667,-0.5448000000000001,0.266,0.01677777777777778,-0.7650000000000001,67.263,0.030500000000000003,-0.20677500000000001,-0.6760000000000002,100.0,1.0,1.0,207.46666666666667,0.0,0.0,0.0,0.0,0.0,0.0,0.0,8793.7,0.0,55.0,5.0,242.11666666666667,0.0,0.0,0.0,0.0,0.0,0.0,1.0,0.0,0.6089999999999982,0.6089999999999982,0.0,0.0,0.0,55.0,616.79921,10000.0,85.000001,85.000001,85.000001,85.000001,395.0,0.0,0.0,0.0,1.0,166.665,52.719,52.719,47.867,47.867,34.0,-22.4325,26.118,-27.86,30.85,0.0,1783.049,-0.5549999999999997,100.0,27.346,27.758,42.244,42.574,0.0,0.0,100.0,0.0,0.0,0.0,0.0,3131.142857142857,3110.8,4248.125,4186.0,305.422,304.79475,314.56325,314.42575,21.896,20.5773,21.9005,21.4087,314.999998,314.999998,324.999988,324.999988,99.55905714285714,99.50736666666667,99.56724285714286,99.54651428571428,0.12150000000000016,-0.016000000000000014,-0.07883333333333332,0.15266666666666667,-0.051666666666669414,-0.036666666666668846,1.5375,1.516,37.849999999999994,29.6085,37.878,34.804,56.125,34.9625,59.6575,52.223,54.049,34.0875,58.249,50.557,53.207,33.6245,58.179,49.96933333333333,-0.12749999999999995,-0.03400000000000003,0.10792,0.114265,0.0,210.635,210.66500000000002,207.46666666666667,207.46666666666667,0.0,0.0
13,0.0,0.0,0.0,1.0,1.0,0.0,0.0,1.0,0.0,100.0,1.0,1.1856,26.0,0.0,0.0,0.0,59.999996,0.0,26.0,26.0,26.0,26.0,0.07424999999999993,0.2713000000000001,0.05904,292.557,-2.7043,-2.6741111111111113,-1.5926,-1.5065,-231.97,216.04000000000002,190.723,0.0,0.0,0.0,0.0,0.026999999999999913,-5.498166666666667,-5.498166666666667,-0.5397000000000001,-0.1180000000000001,0.026555555555555665,1.044,67.405,0.039900000000000005,-0.21732500000000002,-0.9059999999999997,100.0,1.0,1.0,207.86333333333334,0.0,0.0,0.0,0.0,0.0,0.0,0.0,8810.6,0.0,55.0,5.0,242.63,1.0,0.0,0.0,0.0,0.0,0.0,1.0,0.0,0.6600000000000001,0.6600000000000001,0.0,0.0,1.0,55.0,616.79921,10000.0,85.000001,85.000001,85.000001,85.000001,395.0,0.0,0.0,0.0,1.0,166.665,52.46,52.46,47.928,47.928,34.0,-20.4375,27.98,-26.296666666666663,33.1425,0.0,1782.998,-0.8249999999999993,100.0,27.801,27.81,42.563,43.019,0.0,0.0,100.0,0.0,0.0,0.0,0.0,3031.714285714286,3194.7,4117.0,4367.0,305.52,304.71025,314.78425,314.05175,21.905666666666665,20.5829,21.9111,21.4179,314.999998,314.999998,324.999988,324.999988,99.55908571428571,99.50736666666667,99.56738571428572,99.54665714285714,0.14900000000000002,0.015666666666666718,-0.05483333333333334,0.16833333333333333,-0.036666666666668846,-0.060000000000002274,1.5090000000000001,1.473,37.91,29.643,37.944,34.862,56.114999999999995,35.0005,59.695,52.2875,54.039,34.123,58.284,50.619,53.196,33.658500000000004,58.210499999999996,50.03033333333333,-0.14149999999999996,-0.013500000000000068,0.10813,0.10758500000000001,0.0,211.055,211.11,207.86333333333334,207.86333333333334,0.0,0.0
14,0.0,0.0,0.0,1.0,1.0,0.0,0.0,1.0,0.0,100.0,1.0,1.1856,26.0,0.0,0.0,0.0,59.999996,0.0,26.0,26.0,26.0,26.0,0.11299999999999999,0.28380000000000005,-0.01564,292.816,-2.7361,-2.6703333333333332,-1.60205,-1.5116,-228.53,216.01749999999998,190.70175,0.0,0.0,0.0,0.0,0.028999999999999915,-5.498166666666667,-5.498166666666667,-0.5496,-0.12250000000000005,0.05355555555555558,-0.27300000000000013,67.545,0.0524,-0.22870000000000001,-1.0039999999999996,100.0,1.0,1.0,208.39333333333332,0.0,0.0,0.0,0.0,0.0,0.0,0.0,8833.1,0.0,55.0,5.0,243.13333333333333,0.0,0.0,0.0,0.0,0.0,0.0,1.0,0.0,0.7109999999999985,0.7109999999999985,0.0,0.0,0.0,55.0,616.79921,10000.0,85.000001,85.000001,85.000001,85.000001,395.0,0.0,0.0,0.0,1.0,166.665,52.597,52.597,48.111,48.111,34.0,-20.322499999999998,28.016,-24.996666666666666,31.3,0.0,1782.947,-0.9450000000000003,100.0,27.522,28.076,42.403999999999996,43.311,0.0,0.0,100.0,0.0,0.0,0.0,0.0,3057.285714285714,3146.1,3987.5,4132.4,305.785,304.61075,315.186,314.5155,21.915111111111113,20.5884,21.9215,21.427,314.999998,314.999998,324.999988,324.999988,99.5591,99.50736666666667,99.56752857142857,99.54681428571429,0.15474999999999994,0.020999999999999908,-0.052000000000000005,0.17283333333333334,-0.041666666666671404,-0.054999999999999716,1.556,1.51,37.97,29.677500000000002,38.009,34.919,56.105000000000004,35.0385,59.731,52.3505,54.028999999999996,34.158,58.317,50.6795,53.185,33.692499999999995,58.2405,50.089333333333336,-0.15600000000000003,0.0034999999999999476,0.10806,0.10648500000000001,0.0,211.47500000000002,211.54000000000002,208.39333333333332,208.39333333333332,0.0,0.0
15,0.0,0.0,0.0,1.0,1.0,0.0,0.0,1.0,0.0,100.0,1.0,1.1856,26.0,0.0,0.0,0.0,59.999996,0.0,26.0,26.0,26.0,26.0,0.12237500000000012,0.27649999999999997,0.020800000000000003,292.816,-2.74725,-2.570444444444444,-1.6275,-1.4516,-225.48,216.0,190.682625,0.0,0.0,0.0,0.0,0.03076666666666661,-5.498166666666667,-5.498166666666667,-0.5393,0.21499999999999997,0.08522222222222209,0.8069999999999999,67.669,0.0659,-0.2082,-1.2139999999999995,100.0,1.0,1.0,208.7266666666667,0.0,0.0,0.0,0.0,0.0,0.0,0.0,8847.2,0.0,55.0,5.0,243.57666666666665,1.0,0.0,0.0,0.0,0.0,0.0,1.0,0.0,0.7560000000000002,0.7560000000000002,0.0,0.0,1.0,55.0,616.79921,10000.0,85.000001,85.000001,85.000001,85.000001,395.0,0.0,0.0,0.0,1.0,166.665,52.826,52.826,48.126,48.126,34.0,-17.9775,28.2,-23.64,34.4925,0.0,1782.901,-0.9499999999999993,100.0,27.674,27.944,42.25,43.3,0.0,0.0,100.0,0.0,0.0,0.0,0.0,2781.142857142857,3241.7,3935.875,4420.2,306.3285,304.5715,315.25575,313.958,21.923444444444446,20.5933,21.9306,21.4351,314.999998,314.999998,324.999988,324.999988,99.55911428571429,99.50738333333334,99.56765714285714,99.54694285714285,0.16975000000000007,0.032333333333333325,-0.02416666666666667,0.202,-0.036666666666668846,-0.04833333333333201,1.5545,1.5010000000000001,38.022,29.708,38.066,34.9695,56.096000000000004,35.073,59.7615,52.4065,54.021,34.19,58.3455,50.7335,53.176,33.723,58.2665,50.14266666666666,-0.15600000000000003,-0.0035000000000000586,0.099985,0.11051000000000001,0.0,211.86,211.94,208.7266666666667,208.7266666666667,0.0,0.0
16,0.0,0.0,0.0,1.0,1.0,0.0,0.0,1.0,0.0,100.0,1.0,1.1856,26.0,0.0,0.0,0.0,59.999996,0.0,26.0,26.0,26.0,26.0,0.12874999999999992,0.27170000000000005,-0.059879999999999996,292.786,-2.80485,-2.58,-1.5993,-1.5152,-222.03,215.98000000000002,190.6605,0.0,0.0,0.0,0.0,0.03279999999999994,-5.498166666666667,-5.498166666666667,-0.5638000000000001,-0.671,0.06555555555555559,-1.1520000000000001,67.80799999999999,0.0792,-0.22785000000000002,-1.1739999999999995,100.0,1.0,1.0,209.18666666666667,0.0,0.0,0.0,0.0,0.0,0.0,0.0,8866.7,0.0,55.0,5.0,244.08333333333334,0.0,0.0,0.0,0.0,0.0,0.0,1.0,0.0,0.8069999999999986,0.8069999999999986,0.0,0.0,0.0,55.0,616.79921,10000.0,85.000001,85.000001,85.000001,85.000001,395.0,0.0,0.0,0.0,1.0,166.665,52.521,52.521,47.974000000000004,47.974000000000004,34.0,-20.66,28.59,-23.263333333333335,32.3975,0.0,1782.851,-0.8649999999999984,100.0,27.311,28.191,42.444,43.464,0.0,0.0,100.0,0.0,0.0,0.0,0.0,3063.142857142857,3239.1,3941.75,4098.6,305.77,304.4565,315.263,314.6215,21.932666666666666,20.5989,21.9411,21.4443,314.999998,314.999998,324.999988,324.999988,99.55912857142857,99.50738333333334,99.5678,99.54708571428571,0.16274999999999995,0.035666666666666735,-0.0245,0.20216666666666666,-0.03166666666666629,-0.03999999999999915,1.567,1.5275,38.079,29.743499999999997,38.132,35.0265,56.083,35.1125,59.799,52.4685,54.007999999999996,34.2265,58.3805,50.7935,53.162,33.757999999999996,58.298,50.20166666666667,-0.14349999999999996,-0.010000000000000009,0.10712,0.10459500000000001,0.0,212.255,212.34,209.18666666666667,209.18666666666667,0.0,0.0
17,0.0,0.0,0.0,1.0,1.0,0.0,0.0,1.0,0.0,100.0,1.0,1.1856,26.0,0.0,0.0,0.0,59.999996,0.0,26.0,26.0,26.0,26.0,0.11737500000000001,0.2832000000000001,-0.00638,292.374,-2.75895,-2.5665555555555555,-1.6413,-1.4775,-218.57,215.9675,190.637875,0.0,0.0,0.0,0.0,0.03479999999999994,-5.498166666666667,-5.498166666666667,-0.5496,0.492,0.049555555555555575,0.921,67.947,0.0805,-0.206675,-1.1339999999999995,100.0,1.0,1.0,209.54666666666668,0.0,0.0,0.0,0.0,0.0,0.0,0.0,8881.9,0.0,55.0,5.0,244.57999999999998,1.0,0.0,0.0,0.0,0.0,0.0,1.0,0.0,0.8580000000000005,0.8580000000000005,0.0,0.0,1.0,55.0,616.79921,10000.0,85.000001,85.000001,85.000001,85.000001,395.0,0.0,0.0,0.0,1.0,166.665,52.368,52.368,47.653,47.653,34.0,-19.1775,28.338,-25.966666666666665,34.955,0.0,1782.8,-0.9699999999999989,100.0,27.906,28.305,42.377,43.367000000000004,0.0,0.0,100.0,0.0,0.0,0.0,0.0,2997.714285714286,3185.5,4244.875,4375.6,305.7,304.768,314.58225,314.1095,21.94211111111111,20.6047,21.9515,21.4534,314.999998,314.999998,324.999988,324.999988,99.55915714285715,99.5074,99.56794285714285,99.54722857142858,0.18225000000000025,0.050666666666666416,-0.021,0.2105,-0.03833333333332689,-0.046666666666666856,1.5285,1.4775,38.138,29.779,38.197,35.084,56.076,35.1535,59.834,52.5315,54.0,34.2645,58.413,50.854,53.153,33.795,58.3275,50.260666666666665,-0.14849999999999997,-0.006000000000000005,0.11200500000000001,0.10655,0.0,212.735,212.815,209.54666666666668,209.54666666666668,0.0,0.0
18,0.0,0.0,0.0,1.0,1.0,0.0,0.0,1.0,0.0,100.0,1.0,1.1856,26.0,0.0,0.0,0.0,59.999996,0.0,26.0,26.0,26.0,26.0,0.140625,0.26580000000000004,0.00282,292.267,-2.80295,-2.530222222222222,-1.6608,-1.4179,-215.1,215.95499999999998,190.6155,0.0,0.0,0.0,0.0,0.036799999999999944,-5.498166666666667,-5.498166666666667,-0.5625,-0.44399999999999995,0.07522222222222208,-0.28800000000000003,68.08500000000001,0.08120000000000001,-0.22635000000000002,-1.2599999999999998,100.0,1.0,1.0,209.99333333333334,0.0,0.0,0.0,0.0,0.0,0.0,0.0,8900.8,0.0,55.0,5.0,245.07999999999998,0.0,0.0,0.0,0.0,0.0,0.0,1.0,0.0,0.9089999999999989,0.9089999999999989,0.0,0.0,0.0,55.0,616.79921,10000.0,85.000001,85.000001,85.000001,85.000001,395.0,0.0,0.0,0.0,1.0,166.665,52.032,52.032,47.546,47.546,34.0,-20.335,30.372,-24.349999999999998,32.682500000000005,0.0,1782.75,-1.2949999999999982,100.0,27.504,28.418,42.599000000000004,43.89,0.0,0.0,100.0,0.0,0.0,0.0,0.0,3139.4285714285716,3357.0,4051.625,4225.6,305.5095,304.10325,315.0625,314.376,21.951444444444444,20.6103,21.962,21.462699999999998,314.999998,314.999998,324.999988,324.999988,99.55917142857143,99.5074,99.56808571428571,99.54738571428571,0.18425000000000002,0.06000000000000005,-0.014833333333333334,0.20916666666666667,-0.054999999999999716,-0.045000000000001705,1.5625,1.4985,38.197,29.8145,38.263,35.141999999999996,56.066,35.194,59.871,52.596000000000004,53.991,34.3025,58.447,50.916,53.143,33.831,58.3585,50.322,-0.16999999999999993,0.019499999999999962,0.103565,0.11144000000000001,0.0,213.13,213.215,209.99333333333334,209.99333333333334,0.0,0.0
19,0.0,0.0,0.0,1.0,1.0,0.0,0.0,1.0,0.0,100.0,1.0,1.1856,26.0,0.0,0.0,0.0,59.999996,0.0,26.0,26.0,26.0,26.0,0.17262500000000003,0.28490000000000015,0.06656000000000001,291.855,-2.7163,-2.6364444444444444,-1.5945,-1.4018000000000002,-211.62,215.9475,190.592875,0.0,0.0,0.0,0.0,0.038833333333333386,-5.498166666666667,-5.498166666666667,-0.5459,0.784,0.08744444444444421,0.904,68.223,0.0903,-0.20935,-1.7599999999999998,100.0,1.0,1.0,210.35000000000002,0.0,0.0,0.0,0.0,0.0,0.0,0.0,8915.9,0.0,55.0,5.0,245.57333333333332,1.0,0.0,0.0,0.0,0.0,0.0,1.0,0.0,0.9600000000000009,0.9600000000000009,0.0,0.0,1.0,55.0,616.79921,10000.0,85.000001,85.000001,85.000001,85.000001,395.0,0.0,0.0,0.0,1.0,166.665,51.804,51.804,47.241,47.241,34.0,-16.58,32.088,-23.3,36.707499999999996,0.0,1782.699,-1.5599999999999987,100.0,28.127,28.753,42.486000000000004,43.905,0.0,0.0,100.0,0.0,0.0,0.0,0.0,2944.5714285714284,3298.9,4156.0,4588.4,305.761,304.218,314.7055,313.60525,21.96088888888889,20.6162,21.9724,21.472,314.999998,314.999998,324.999988,324.999988,99.5592,99.5074,99.56822857142858,99.54754285714286,0.22650000000000015,0.08966666666666656,0.007,0.22266666666666665,-0.03333333333333144,-0.05333333333332746,1.5130000000000001,1.451,38.256,29.851,38.327,35.2,56.06,35.2385,59.9055,52.66,53.985,34.3435,58.479,50.978,53.135999999999996,33.8705,58.387,50.382999999999996,-0.20099999999999996,0.04399999999999993,0.10866,0.10447000000000001,0.0,213.57999999999998,213.695,210.35000000000002,210.35000000000002,0.0,0.0
20,0.0,0.0,0.0,1.0,1.0,0.0,0.0,1.0,0.0,100.0,1.0,1.1856,26.0,0.0,0.0,0.0,59.999996,0.0,26.0,26.0,26.0,26.0,0.20300000000000007,0.2703,0.04768,292.297,-2.82535,-2.5806666666666667,-1.6069,-1.5171000000000001,-208.34,215.945,190.571875,0.0,0.0,0.0,0.0,0.0407333333333334,-5.498166666666667,-5.498166666666667,-0.558,-1.3054999999999999,0.09466666666666668,0.42899999999999994,68.35300000000001,0.10790000000000001,-0.22542500000000001,-1.976,100.0,1.0,1.0,210.71333333333334,0.0,0.0,0.0,0.0,0.0,0.0,0.0,8931.3,0.0,55.0,5.0,246.04666666666668,0.0,0.0,0.0,0.0,0.0,0.0,0.0,0.0,1.0079999999999991,1.0079999999999991,0.0,0.0,0.0,55.0,616.79921,10000.0,85.000001,85.000001,85.000001,85.000001,395.0,0.0,0.0,0.0,1.0,333.33500000000004,52.704,52.704,47.012,47.012,34.0,-16.787499999999998,31.034,-21.46333333333333,37.205,0.0,1782.649,-1.3099999999999987,100.0,27.488,28.404,42.897,44.322,0.0,0.0,100.0,0.0,0.0,0.0,0.0,2796.4285714285716,3293.2,4024.0,4325.5,306.4405,304.43925,314.95875,314.07325,21.969444444444445,20.6215,21.9824,21.4808,314.999998,314.999998,324.999988,324.999988,99.55922857142858,99.50741666666667,99.56837142857142,99.54767142857143,0.2157499999999999,0.08466666666666667,0.029166666666666667,0.24433333333333335,-0.02499999999999858,-0.07166666666666544,1.5235,1.451,38.309,29.8845,38.39,35.254999999999995,56.05,35.2785,59.942,52.7215,53.974999999999994,34.381,58.5125,51.0375,53.125,33.9065,58.417500000000004,50.44133333333333,-0.1825,0.02949999999999997,0.10523,0.09861500000000001,0.0,213.9,214.07,210.71333333333334,210.71333333333334,0.0,0.0
21,0.0,0.0,0.0,1.0,1.0,0.0,0.0,1.0,0.0,100.0,1.0,1.1856,26.0,0.0,0.0,0.0,59.999996,0.0,26.0,26.0,26.0,26.0,0.1568750000000001,0.2925,-0.04986,292.496,-2.78945,-2.5823333333333336,-1.66395,-1.485,-204.86,215.9475,190.548625,0.0,0.0,0.0,0.0,0.04276666666666651,-5.498166666666667,-5.498166666666667,-0.5772,0.622,0.0664444444444443,-1.1920000000000002,68.485,0.12440000000000001,-0.220425,-1.2839999999999998,100.0,1.0,1.0,211.33333333333331,0.0,0.0,0.0,0.0,0.0,0.0,0.0,8957.7,0.0,55.0,5.0,246.51999999999998,1.0,0.0,0.0,0.0,0.0,0.0,0.0,0.0,1.059000000000001,1.059000000000001,0.0,0.0,1.0,55.0,616.79921,10000.0,85.000001,85.000001,85.000001,85.000001,395.0,0.0,0.0,0.0,1.0,166.665,52.139,52.139,48.035,48.035,34.0,-21.55,27.314,-22.27,33.84,0.0,1782.598,0.10999999999999943,100.0,27.711,28.741,42.17,43.903,0.0,0.0,100.0,0.0,0.0,0.0,0.0,3073.285714285714,3206.1,4048.375,4084.6000000000004,305.6685,304.5215,315.14325,314.762,21.97888888888889,20.627299999999998,21.9926,21.4899,314.999998,314.999998,324.999988,324.999988,99.55925714285715,99.50743333333334,99.56851428571429,99.54782857142857,0.1432500000000001,0.01100000000000012,0.021500000000000002,0.248,-0.060000000000002274,-0.03999999999999915,1.6085,1.5505,38.367999999999995,29.921,38.454,35.3115,56.041,35.321,59.9735,52.782,53.966,34.42,58.5415,51.096000000000004,53.114000000000004,33.9445,58.4435,50.498333333333335,-0.08199999999999996,-0.07650000000000001,0.10926000000000001,0.10304,0.0,214.39,214.47500000000002,211.33333333333331,211.33333333333331,0.0,0.0
22,0.0,0.0,0.0,1.0,1.0,0.0,0.0,1.0,0.0,100.0,1.0,1.1856,26.0,0.0,0.0,0.0,59.999996,0.0,26.0,26.0,26.0,26.0,0.10187499999999994,0.2734000000000001,0.00272,292.053,-2.7143,-2.6455555555555557,-1.647,-1.4858,-201.56,215.9525,190.52625,0.0,0.0,0.0,0.0,0.04466666666666652,-5.498166666666667,-5.498166666666667,-0.5566,0.031000000000000028,0.060555555555555696,-0.879,68.616,0.1023,-0.20622500000000002,-0.017999999999999794,100.0,1.0,1.0,211.53,0.0,0.0,0.0,0.0,0.0,0.0,0.0,8965.9,0.0,55.0,5.0,246.99,0.0,0.0,0.0,0.0,0.0,0.0,0.0,0.0,1.1069999999999993,1.1069999999999993,0.0,0.0,0.0,55.0,616.79921,10000.0,85.000001,85.000001,85.000001,85.000001,395.0,0.0,0.0,0.0,1.0,333.33500000000004,52.383,52.383,47.012,47.012,34.0,-21.6375,24.766,-26.3,33.9825,0.0,1782.55,0.6600000000000001,100.0,27.814,28.724,42.769999999999996,44.177,0.0,0.0,100.0,0.0,0.0,0.0,0.0,2944.142857142857,3078.3,4252.375,4352.6,305.967,304.8065,314.5905,314.071,21.987666666666666,20.6327,22.0026,21.4986,314.999998,314.999998,324.999988,324.999988,99.55927142857144,99.50743333333334,99.56864285714286,99.54797142857143,0.10175000000000001,-0.03733333333333322,-0.021166666666666667,0.19066666666666665,-0.041666666666671404,-0.04999999999999716,1.481,1.4785,38.423,29.9545,38.516,35.3665,56.028999999999996,35.358000000000004,60.01,52.843,53.955,34.454499999999996,58.5755,51.155,53.102000000000004,33.9775,58.4745,50.556333333333335,-0.031000000000000028,-0.1280000000000001,0.096835,0.102665,0.0,214.82999999999998,214.84,211.53,211.53,0.0,0.0
23,0.0,0.0,0.0,1.0,1.0,0.0,0.0,1.0,0.0,100.0,1.0,1.1856,26.0,0.0,0.0,0.0,59.999996,0.0,26.0,26.0,26.0,26.0,0.016000000000000014,0.2654000000000001,-0.02628,292.145,-2.7125,-2.630333333333333,-1.67285,-1.5781,-198.06,215.96,190.502875,0.0,0.0,0.0,0.0,0.04673333333333329,-5.498166666666667,-5.498166666666667,-0.5765,-0.18100000000000005,0.03166666666666673,0.0040000000000000036,68.749,0.0487,-0.23272500000000002,0.8740000000000006,100.0,1.0,1.0,212.08666666666667,0.0,0.0,0.0,0.0,0.0,0.0,0.0,8989.5,0.0,55.0,5.0,247.47333333333336,1.0,0.0,0.0,0.0,0.0,0.0,0.0,0.0,1.1580000000000013,1.1580000000000013,0.0,0.0,1.0,55.0,616.79921,10000.0,85.000001,85.000001,85.000001,85.000001,395.0,0.0,0.0,0.0,1.0,166.665,51.636,51.636,48.172,48.172,34.0,-24.93,24.240000000000002,-27.2,28.8525,0.0,1782.5,0.8399999999999999,100.0,28.428,28.443,43.135,44.062,0.0,0.0,100.0,0.0,0.0,0.0,0.0,3188.5714285714284,3210.5,3952.25,3964.4,305.0875,304.676,315.32725,314.99375,21.99711111111111,20.6385,22.0131,21.5079,314.999998,314.999998,324.999988,324.999988,99.55928571428572,99.50743333333334,99.56878571428571,99.54811428571429,0.0794999999999999,-0.06666666666666665,-0.0815,0.14116666666666666,-0.05833333333333002,-0.04999999999999716,1.5275,1.5625,38.482,29.990499999999997,38.582,35.424,56.016,35.3985,60.045500000000004,52.9055,53.942,34.492,58.6085,51.215,53.088,34.0135,58.504,50.615,-0.015000000000000013,-0.14949999999999997,0.10732000000000001,0.10503000000000001,0.0,215.26999999999998,215.2,212.08666666666667,212.08666666666667,0.0,0.0
24,0.0,0.0,0.0,1.0,1.0,0.0,0.0,1.0,0.0,100.0,1.0,1.1856,26.0,0.0,0.0,0.0,59.999996,0.0,26.0,26.0,26.0,26.0,-0.04599999999999993,0.2673000000000001,-0.0029600000000000004,292.404,-2.7108499999999998,-2.663444444444444,-1.5707,-1.5392000000000001,-194.55,215.9675,190.478875,0.0,0.0,0.0,0.0,0.048766666666666514,-5.498166666666667,-5.498166666666667,-0.5824,-0.6835,0.013333333333333197,-0.45799999999999996,68.886,-0.0058000000000000005,-0.2174,1.2799999999999994,100.0,1.0,1.0,212.38333333333333,0.0,0.0,0.0,0.0,0.0,0.0,0.0,9002.2,0.0,55.0,5.0,247.96,0.0,0.0,0.0,0.0,0.0,0.0,0.0,0.0,1.2089999999999996,1.2089999999999996,0.0,0.0,0.0,55.0,616.79921,10000.0,85.000001,85.000001,85.000001,85.000001,395.0,0.0,0.0,0.0,1.0,166.665,52.917,52.917,47.089,47.089,34.0,-24.8825,20.14,-32.596666666666664,26.915,0.0,1782.45,0.8150000000000013,100.0,28.023,28.107,43.39,43.703,0.0,0.0,100.0,0.0,0.0,0.0,0.0,2971.0,2908.3,4311.5,4103.9,305.919,305.4935,314.40625,314.696,22.006555555555554,20.6439,22.023699999999998,21.517,314.999998,314.999998,324.999988,324.999988,99.55928571428572,99.50745,99.56894285714286,99.54827142857143,0.026000000000000245,-0.11399999999999988,-0.14683333333333334,0.08700000000000001,-0.036666666666668846,-0.04999999999999716,1.4825,1.524,38.541,30.0245,38.647999999999996,35.481,55.998999999999995,35.4375,60.0835,52.965,53.926,34.528,58.644,51.2725,53.072,34.048,58.536,50.67133333333334,-0.010000000000000009,-0.15149999999999997,0.10781500000000001,0.11386,0.0,215.70499999999998,215.60000000000002,212.38333333333333,212.38333333333333,0.0,0.0
25,0.0,0.0,0.0,1.0,1.0,0.0,0.0,1.0,0.0,100.0,1.0,1.1856,26.0,0.0,0.0,0.0,59.999996,0.0,26.0,26.0,26.0,26.0,-0.07837499999999997,0.2492000000000001,-0.04934,292.206,-2.7465,-2.6564444444444444,-1.5606,-1.5684,-191.24,215.9725,190.454875,0.0,0.0,0.0,0.0,0.05066666666666653,-5.498166666666667,-5.498166666666667,-0.613,0.12549999999999994,-0.013333333333333197,-1.7320000000000002,69.009,-0.0522,-0.22535000000000002,1.4700000000000006,100.0,1.0,1.0,212.92000000000002,0.0,0.0,0.0,0.0,0.0,0.0,0.0,9025.0,0.0,55.0,5.0,248.40666666666667,1.0,0.0,0.0,0.0,0.0,0.0,0.0,0.0,1.256999999999998,1.256999999999998,0.0,0.0,1.0,55.0,616.79921,10000.0,85.000001,85.000001,85.000001,85.000001,395.0,0.0,0.0,0.0,1.0,333.33500000000004,51.650999999999996,51.650999999999996,47.913,47.913,34.0,-30.3925,21.664,-31.376666666666665,23.765,0.0,1782.4,0.7300000000000004,100.0,28.269,28.224,43.303,43.205,0.0,0.0,100.0,0.0,0.0,0.0,0.0,3406.142857142857,3194.2,4027.75,3940.3,304.7495,304.5845,315.145,315.09875,22.015555555555554,20.6491,22.0335,21.5255,314.999998,314.999998,324.999988,324.999988,99.55928571428572,99.50746666666667,99.56907142857143,99.54841428571429,0.0034999999999998366,-0.1306666666666667,-0.184,0.0465,-0.04833333333333201,-0.05666666666667197,1.5355,1.5925,38.597,30.057000000000002,38.709,35.534,55.983000000000004,35.478,60.116,53.0185,53.911,34.5655,58.674,51.324,53.056,34.084,58.5635,50.722,-0.020000000000000018,-0.13749999999999996,0.10517000000000001,0.111045,0.0,216.10000000000002,215.98000000000002,212.92000000000002,212.92000000000002,0.0,0.0
26,0.0,0.0,0.0,1.0,1.0,0.0,0.0,1.0,0.0,100.0,1.0,1.1856,26.0,0.0,0.0,0.0,59.999996,0.0,26.0,26.0,26.0,26.0,-0.14274999999999993,0.28380000000000005,0.10362,291.092,-2.6564,-2.7720000000000002,-1.5785,-1.593,-187.72,215.97750000000002,190.429125,0.0,0.0,0.0,0.0,0.0527333333333333,-5.498166666666667,-5.498166666666667,-0.5688,0.6445000000000001,-0.06122222222222229,0.259,69.146,-0.0818,-0.195975,1.298,100.0,1.0,1.0,213.0366666666667,0.0,0.0,0.0,0.0,0.0,0.0,0.0,9029.9,0.0,55.0,5.0,248.9,0.0,0.0,0.0,0.0,0.0,0.0,0.0,0.0,1.3079999999999998,1.3079999999999998,0.0,0.0,0.0,55.0,616.79921,10000.0,85.000001,85.000001,85.000001,85.000001,395.0,0.0,0.0,0.0,1.0,166.665,51.468,51.468,46.021,46.021,34.0,-28.4825,20.746,-39.05,27.552500000000002,0.0,1782.349,0.5549999999999997,100.0,29.42,28.391,44.32,43.296,0.0,0.0,100.0,0.0,0.0,0.0,0.0,3243.714285714286,3023.4,4662.25,4498.5,304.9245,305.18725,313.58325,313.8575,22.025333333333332,20.6548,22.0442,21.5347,314.999998,314.999998,324.999988,324.999988,99.55928571428572,99.50748333333334,99.56922857142857,99.54855714285715,-0.0004999999999999449,-0.1439999999999999,-0.195,0.027,-0.02499999999999858,-0.045000000000001705,1.426,1.4565000000000001,38.659,30.0925,38.775999999999996,35.592,55.971000000000004,35.522999999999996,60.158,53.079499999999996,53.899,34.607,58.713499999999996,51.3825,53.043,34.124,58.6,50.779333333333334,-0.040000000000000036,-0.12749999999999995,0.105895,0.11235,0.0,216.55,216.435,213.0366666666667,213.0366666666667,0.0,0.0
27,0.0,0.0,0.0,1.0,1.0,0.0,0.0,1.0,0.0,100.0,1.0,1.1856,26.0,0.0,0.0,0.0,59.999996,0.0,26.0,26.0,26.0,26.0,-0.11099999999999999,0.2530000000000001,-0.049100000000000005,291.779,-2.6132,-2.7496666666666667,-1.56055,-1.6718000000000002,-184.19,215.97750000000002,190.404625,0.0,0.0,0.0,0.0,0.05476666666666652,-5.498166666666667,-5.498166666666667,-0.6024,-0.9725000000000001,-0.07311111111111135,-0.635,69.277,-0.0921,-0.24575000000000002,1.1739999999999995,100.0,1.0,1.0,213.64,0.0,0.0,0.0,0.0,0.0,0.0,0.0,9055.5,0.0,55.0,5.0,249.37333333333333,1.0,0.0,0.0,0.0,0.0,0.0,0.0,0.0,1.3589999999999982,1.3589999999999982,0.0,0.0,1.0,55.0,616.79921,10000.0,85.000001,85.000001,85.000001,85.000001,395.0,0.0,0.0,0.0,1.0,166.665,51.788,51.788,46.967,46.967,34.0,-29.275,19.718,-33.64,23.42,0.0,1782.299,0.4400000000000013,100.0,28.976,28.189,44.874,43.661,0.0,0.0,100.0,0.0,0.0,0.0,0.0,3332.857142857143,2966.0,4056.875,3900.8,304.9335,305.25625,314.964,315.13075,22.03488888888889,20.6602,22.0549,21.544,314.999998,314.999998,324.999988,324.999988,99.55928571428572,99.5075,99.56938571428572,99.5487,-0.01574999999999993,-0.15566666666666662,-0.218,0.0135,-0.041666666666671404,-0.03333333333333144,1.5055,1.5565,38.718,30.1265,38.843,35.6495,55.955,35.5655,60.199,53.1395,53.884,34.646,58.7525,51.44,53.027,34.161,58.6355,50.835,-0.04899999999999993,-0.11549999999999994,0.10817500000000001,0.110615,0.0,216.885,216.785,213.64,213.64,0.0,0.0
28,0.0,0.0,0.0,1.0,1.0,0.0,0.0,1.0,0.0,100.0,1.0,1.1856,26.0,0.0,0.0,0.0,59.999996,0.0,26.0,26.0,26.0,26.0,-0.13637500000000002,0.27170000000000005,-0.032760000000000004,291.885,-2.6342,-2.7318888888888893,-1.53845,-1.6045,-180.64999999999998,215.975,190.379125,0.0,0.0,0.0,0.0,0.0568333333333334,-5.498166666666667,-5.498166666666667,-0.5967,0.6855,-0.07122222222222208,0.844,69.408,-0.0951,-0.2083,0.9939999999999998,100.0,1.0,1.0,214.04666666666668,0.0,0.0,0.0,0.0,0.0,0.0,0.0,9072.6,0.0,55.0,5.0,249.84,0.0,0.0,0.0,0.0,0.0,0.0,0.0,0.0,1.4100000000000001,1.4100000000000001,0.0,0.0,0.0,55.0,616.79921,10000.0,85.000001,85.000001,85.000001,85.000001,395.0,0.0,0.0,0.0,1.0,166.665,52.002,52.002,47.226,47.226,34.0,-27.490000000000002,20.168,-34.56333333333333,24.072499999999998,0.0,1782.249,0.3099999999999987,100.0,29.2,27.935,44.284,43.068,0.0,0.0,100.0,0.0,0.0,0.0,0.0,3157.285714285714,3003.9,4249.25,4153.0,305.124,305.32375,314.6475,314.69425,22.044555555555554,20.6657,22.0652,21.553,314.999998,314.999998,324.999988,324.999988,99.5593,99.50751666666666,99.56952857142858,99.54884285714286,-0.0004999999999999449,-0.1436666666666666,-0.20883333333333334,0.012666666666666666,-0.03166666666666629,-0.05833333333333002,1.506,1.557,38.778,30.1605,38.908,35.706,55.941,35.6085,60.235,53.196,53.870999999999995,34.686,58.7855,51.4945,53.013,34.1995,58.666,50.88766666666667,-0.06299999999999994,-0.10549999999999993,0.10612,0.10612500000000001,0.0,217.335,217.255,214.04666666666668,214.04666666666668,0.0,0.0
29,0.0,0.0,0.0,1.0,1.0,0.0,0.0,1.0,0.0,100.0,1.0,1.1856,26.0,0.0,0.0,0.0,59.999996,0.0,26.0,26.0,26.0,26.0,-0.11124999999999996,0.26070000000000015,0.00996,291.656,-2.59155,-2.7825555555555557,-1.5486499999999999,-1.6037,-177.11,215.9675,190.352625,0.0,0.0,0.0,0.0,0.05889999999999995,-5.498166666666667,-5.498166666666667,-0.6098,-0.6935,-0.07033333333333358,-0.706,69.541,-0.0845,-0.221475,0.7560000000000002,100.0,1.0,1.0,214.35666666666668,0.0,0.0,0.0,0.0,0.0,0.0,0.0,9085.8,0.0,55.0,5.0,250.32333333333332,1.0,0.0,0.0,0.0,0.0,0.0,0.0,0.0,1.4609999999999985,1.4609999999999985,0.0,0.0,1.0,55.0,616.79921,10000.0,85.000001,85.000001,85.000001,85.000001,395.0,0.0,0.0,0.0,1.0,166.665,51.849000000000004,51.849000000000004,46.906,46.906,34.0,-28.987499999999997,20.65,-34.56666666666666,24.65,0.0,1782.197,0.20500000000000185,100.0,28.8,28.033,44.58,43.474000000000004,0.0,0.0,100.0,0.0,0.0,0.0,0.0,3362.857142857143,2960.0,4227.0,4122.6,304.7815,305.2265,314.59875,314.61275,22.05388888888889,20.6711,22.0759,21.5622,314.999998,314.999998,324.999988,324.999988,99.5593,99.50753333333333,99.56968571428571,99.54898571428572,-0.004750000000000032,-0.14066666666666672,-0.20433333333333334,0.021166666666666667,-0.045000000000001705,-0.04833333333333201,1.4805,1.5075,38.837,30.194499999999998,38.974000000000004,35.763999999999996,55.924,35.65,60.275999999999996,53.2565,53.855000000000004,34.724000000000004,58.824,51.552,52.997,34.236000000000004,58.701,50.944,-0.0625,-0.09450000000000003,0.107185,0.10902500000000001,0.0,217.7,217.625,214.35666666666668,214.35666666666668,0.0,0.0
30,0.0,0.0,0.0,1.0,1.0,0.0,0.0,1.0,0.0,100.0,1.0,1.1856,26.0,0.0,0.0,0.0,59.999996,0.0,26.0,26.0,26.0,26.0,-0.10362499999999997,0.26849999999999996,0.0558,291.122,-2.6427,-2.671444444444444,-1.4925000000000002,-1.6636000000000002,-173.98000000000002,215.96,190.32925,0.0,0.0,0.0,0.0,0.060733333333333306,-5.498166666666667,-5.498166666666667,-0.6016,0.79,-0.06566666666666654,0.979,69.655,-0.0747,-0.2155,0.6600000000000001,100.0,1.0,1.0,214.74,0.0,0.0,0.0,0.0,0.0,0.0,0.0,9102.0,0.0,55.0,5.0,250.73333333333335,0.0,0.0,0.0,0.0,0.0,0.0,1.0,0.0,1.5060000000000002,1.5060000000000002,0.0,0.0,0.0,55.0,616.79921,10000.0,85.000001,85.000001,85.000001,85.000001,395.0,0.0,0.0,0.0,1.0,333.33500000000004,50.903,50.903,46.967,46.967,34.0,-28.8325,21.439999999999998,-33.349999999999994,27.4825,0.0,1782.151,0.03999999999999915,100.0,29.793,28.555,44.514,43.396,0.0,0.0,100.0,0.0,0.0,0.0,0.0,3401.5714285714284,3087.3,4270.0,4202.5,304.467,305.01925,314.484,314.45475,22.062444444444445,20.6762,22.0851,21.5703,314.999998,314.999998,324.999988,324.999988,99.5593,99.50755,99.56982857142857,99.54911428571428,0.02400000000000002,-0.11766666666666681,-0.18683333333333335,0.04616666666666667,-0.046666666666666856,-0.054999999999999716,1.472,1.4875,38.89,30.2265,39.032,35.814499999999995,55.914,35.69,60.308,53.308,53.846000000000004,34.760999999999996,58.8545,51.6015,52.986000000000004,34.271,58.729,50.992333333333335,-0.08099999999999996,-0.08750000000000013,0.108755,0.11292500000000001,0.0,218.10000000000002,218.03,214.74,214.74,0.0,0.0
31,0.0,0.0,0.0,1.0,1.0,0.0,0.0,1.0,0.0,100.0,1.0,1.1856,26.0,0.0,0.0,0.0,59.999996,0.0,26.0,26.0,26.0,26.0,-0.08387500000000003,0.25870000000000015,-0.030580000000000003,290.939,-2.71725,-2.6435555555555554,-1.54275,-1.6531,-170.42000000000002,215.95,190.3035,0.0,0.0,0.0,0.0,0.06279999999999997,-5.498166666666667,-5.498166666666667,-0.5944,-0.633,-0.05522222222222206,-0.714,69.787,-0.057600000000000005,-0.223275,0.33000000000000007,100.0,1.0,1.0,215.03,0.0,0.0,0.0,0.0,0.0,0.0,0.0,9114.4,0.0,55.0,5.0,251.20666666666665,1.0,0.0,0.0,0.0,0.0,0.0,1.0,0.0,1.5569999999999986,1.5569999999999986,0.0,0.0,1.0,55.0,616.79921,10000.0,85.000001,85.000001,85.000001,85.000001,395.0,0.0,0.0,0.0,1.0,333.33500000000004,51.331,51.331,45.638999999999996,45.638999999999996,34.0,-27.822499999999998,21.646,-34.516666666666666,28.392500000000002,0.0,1782.099,-0.004999999999999005,100.0,29.274,28.788,45.037,44.120999999999995,0.0,0.0,100.0,0.0,0.0,0.0,0.0,3262.285714285714,3121.6,4393.875,4260.4,305.1615,304.91725,314.18775,314.338,22.07177777777778,20.6819,22.0958,21.5797,314.999998,314.999998,324.999988,324.999988,99.55931428571428,99.50756666666666,99.56998571428572,99.54927142857143,0.023499999999999854,-0.11333333333333329,-0.17233333333333334,0.057,-0.03499999999999659,-0.04333333333332945,1.4625000000000001,1.4805,38.949,30.261499999999998,39.099000000000004,35.8735,55.897999999999996,35.735,60.352000000000004,53.3735,53.83,34.8025,58.8955,51.664500000000004,52.97,34.311,58.7665,51.054,-0.08250000000000002,-0.08099999999999996,0.108185,0.11048000000000001,0.0,218.44,218.41500000000002,215.03,215.03,0.0,0.0
32,0.0,0.0,0.0,1.0,1.0,0.0,0.0,1.0,0.0,100.0,1.0,1.1856,26.0,0.0,0.0,0.0,59.999996,0.0,26.0,26.0,26.0,26.0,-0.057374999999999954,0.26649999999999996,-0.009540000000000002,291.183,-2.6231999999999998,-2.7527777777777778,-1.53685,-1.5624,-166.64999999999998,215.935,190.27625,0.0,0.0,0.0,0.0,0.0649666666666665,-5.498166666666667,-5.498166666666667,-0.608,0.15300000000000002,-0.08144444444444421,-0.784,69.922,-0.0419,-0.227275,0.27200000000000024,100.0,1.0,1.0,215.55,0.0,0.0,0.0,0.0,0.0,0.0,0.0,9136.4,0.0,55.0,5.0,251.69333333333333,0.0,0.0,0.0,0.0,0.0,0.0,1.0,0.0,1.6110000000000007,1.6110000000000007,0.0,0.0,0.0,55.0,616.79921,10000.0,85.000001,85.000001,85.000001,85.000001,395.0,0.0,0.0,0.0,1.0,166.665,51.331,51.331,46.463,46.463,34.0,-26.3475,22.049999999999997,-32.63333333333333,27.0125,0.0,1782.048,-0.09499999999999886,100.0,29.259,28.797,44.623000000000005,43.925,0.0,0.0,100.0,0.0,0.0,0.0,0.0,3313.857142857143,2985.7,4299.625,4245.2,304.85,305.14025,314.43725,314.4195,22.081777777777777,20.6879,22.1069,21.5895,314.999998,314.999998,324.999988,324.999988,99.55931428571428,99.50758333333333,99.57012857142857,99.54942857142858,0.051750000000000185,-0.1056666666666668,-0.159,0.06183333333333334,-0.060000000000002274,-0.03999999999999915,1.4995,1.5190000000000001,39.010999999999996,30.299500000000002,39.168,35.934,55.885,35.777,60.388,53.431,53.818,34.841499999999996,58.929,51.72,52.956,34.348,58.797,51.108000000000004,-0.09399999999999997,-0.07899999999999996,0.11018000000000001,0.105035,0.0,218.9,218.85000000000002,215.55,215.55,0.0,0.0
33,0.0,0.0,0.0,1.0,1.0,0.0,0.0,1.0,0.0,100.0,1.0,1.1856,26.0,0.0,0.0,0.0,59.999996,0.0,26.0,26.0,26.0,26.0,-0.05412499999999998,0.2610000000000001,-0.01148,291.428,-2.6727,-2.735888888888889,-1.5482,-1.63,-163.5,215.9225,190.25275,0.0,0.0,0.0,0.0,0.06679999999999997,-5.498166666666667,-5.498166666666667,-0.6125,-0.4345000000000001,-0.061555555555555586,1.451,70.037,-0.032600000000000004,-0.21595,0.11599999999999966,100.0,1.0,1.0,215.8466666666667,0.0,0.0,0.0,0.0,0.0,0.0,0.0,9149.0,0.0,55.0,5.0,252.10666666666668,1.0,0.0,0.0,0.0,0.0,0.0,1.0,0.0,1.6559999999999988,1.6559999999999988,0.0,0.0,1.0,55.0,616.79921,10000.0,85.000001,85.000001,85.000001,85.000001,395.0,0.0,0.0,0.0,1.0,166.665,51.865,51.865,46.57,46.57,34.0,-24.57,23.35,-31.259999999999998,29.865000000000002,0.0,1782.001,-0.17999999999999972,100.0,29.104,28.336,44.63,43.918,0.0,0.0,100.0,0.0,0.0,0.0,0.0,3114.5714285714284,3052.6,4202.25,4324.4,305.377,305.19475,314.59975,314.23225,22.09,20.6927,22.1161,21.5977,314.999998,314.999998,324.999988,324.999988,99.55932857142857,99.50758333333333,99.57027142857143,99.54955714285714,0.06325000000000003,-0.07766666666666677,-0.14250000000000002,0.0825,-0.03333333333333144,-0.041666666666671404,1.477,1.4915,39.063,30.3295,39.226,35.9855,55.872,35.8105,60.420500000000004,53.484,53.806,34.8725,58.9595,51.771,52.944,34.378,58.8245,51.157,-0.09799999999999998,-0.06299999999999994,0.11073500000000001,0.107075,0.0,219.22,219.195,215.8466666666667,215.8466666666667,0.0,0.0
34,0.0,0.0,0.0,1.0,1.0,0.0,0.0,1.0,0.0,100.0,1.0,1.1856,26.0,0.0,0.0,0.0,59.999996,0.0,26.0,26.0,26.0,26.0,-0.02024999999999999,0.2601,-0.08394,291.84,-2.6898999999999997,-2.7141111111111114,-1.61165,-1.5892,-159.93,215.9075,190.22475,0.0,0.0,0.0,0.0,0.06889999999999996,-5.498166666666667,-5.498166666666667,-0.6459,-0.8115000000000001,-0.03166666666666673,-0.15700000000000003,70.16499999999999,-0.0194,-0.22690000000000002,0.05799999999999983,100.0,1.0,1.0,216.31333333333333,0.0,0.0,0.0,0.0,0.0,0.0,0.0,9168.7,0.0,55.0,5.0,252.56666666666666,0.0,0.0,0.0,0.0,0.0,0.0,1.0,0.0,1.7070000000000007,1.7070000000000007,0.0,0.0,0.0,55.0,616.79921,10000.0,85.000001,85.000001,85.000001,85.000001,395.0,0.0,0.0,0.0,1.0,166.665,52.2,52.2,47.363,47.363,34.0,-24.4275,22.689999999999998,-29.943333333333335,27.8875,0.0,1781.951,-0.1750000000000007,100.0,28.688,28.228,44.214,44.047,0.0,0.0,100.0,0.0,0.0,0.0,0.0,3125.0,2950.5,4077.625,4112.7,305.4045,305.311,315.03275,314.652,22.099333333333334,20.6982,22.1265,21.6069,314.999998,314.999998,324.999988,324.999988,99.55932857142857,99.5076,99.57041428571429,99.54971428571429,0.07074999999999987,-0.07266666666666666,-0.1305,0.09033333333333333,-0.051666666666669414,-0.051666666666669414,1.5365,1.5385,39.120999999999995,30.363999999999997,39.291,36.0435,55.858000000000004,35.8485,60.454499999999996,53.543,53.792,34.9075,58.991,51.828,52.929,34.411500000000004,58.853,51.213,-0.09699999999999998,-0.0625,0.10294500000000001,0.11081,0.0,219.585,219.59,216.31333333333333,216.31333333333333,0.0,0.0
35,0.0,0.0,0.0,1.0,1.0,0.0,0.0,1.0,0.0,100.0,1.0,1.1856,26.0,0.0,0.0,0.0,59.999996,0.0,26.0,26.0,26.0,26.0,-0.019000000000000017,0.2513000000000001,-0.05788,291.763,-2.68675,-2.67,-1.59475,-1.6013000000000002,-156.34,215.89249999999998,190.194625,0.0,0.0,0.0,0.0,0.07096666666666651,-5.498166666666667,-5.498166666666667,-0.6862,-0.23849999999999993,-0.037555555555555564,-0.006000000000000005,70.291,-0.008400000000000001,-0.22962500000000002,-0.09200000000000053,100.0,1.0,1.0,216.78,0.0,0.0,0.0,0.0,0.0,0.0,0.0,9188.5,0.0,55.0,5.0,253.02333333333334,1.0,0.0,0.0,0.0,0.0,0.0,1.0,0.0,1.7579999999999991,1.7579999999999991,0.0,0.0,1.0,55.0,616.79921,10000.0,85.000001,85.000001,85.000001,85.000001,395.0,0.0,0.0,0.0,1.0,166.665,51.468,51.468,47.028,47.028,34.0,-24.235,26.546,-28.09,27.7225,0.0,1781.901,-0.16000000000000014,100.0,28.636,28.495,43.964,43.543,0.0,0.0,100.0,0.0,0.0,0.0,0.0,3164.714285714286,3396.5,3988.0,3970.7,305.2575,304.142,315.165,315.072,22.108333333333334,20.704,22.1368,21.616,314.999998,314.999998,324.999988,324.999988,99.55934285714285,99.50761666666666,99.57055714285714,99.54985714285715,0.08375000000000021,-0.06099999999999994,-0.11366666666666668,0.10966666666666668,-0.03499999999999659,-0.054999999999999716,1.569,1.545,39.177,30.4,39.355000000000004,36.1,55.842,35.8885,60.4885,53.599000000000004,53.777,34.9445,59.0225,51.8815,52.913,34.447,58.8815,51.265,-0.09750000000000003,-0.06950000000000012,0.10967500000000001,0.10516,0.0,219.985,219.98000000000002,216.78,216.78,0.0,0.0
36,0.0,0.0,0.0,1.0,1.0,0.0,0.0,1.0,0.0,100.0,1.0,1.1856,26.0,0.0,0.0,0.0,59.999996,0.0,26.0,26.0,26.0,26.0,-0.016249999999999987,0.26490000000000014,0.06520000000000001,290.756,-2.6371,-2.686888888888889,-1.54925,-1.596,-152.97,215.875,190.164875,0.0,0.0,0.0,0.0,0.0729333333333333,-5.498166666666667,-5.498166666666667,-0.6643,0.21750000000000003,-0.07288888888888856,0.19099999999999995,70.414,-0.0016,-0.20145000000000002,0.034000000000000696,100.0,1.0,1.0,216.89333333333332,0.0,0.0,0.0,0.0,0.0,0.0,0.0,9193.2,0.0,55.0,5.0,253.46333333333334,0.0,0.0,0.0,0.0,0.0,0.0,1.0,0.0,1.806000000000001,1.806000000000001,0.0,0.0,0.0,55.0,616.79921,10000.0,85.000001,85.000001,85.000001,85.000001,395.0,0.0,0.0,0.0,1.0,166.665,51.178,51.178,46.082,46.082,34.0,-23.555,25.408,-31.636666666666663,33.8925,0.0,1781.852,-0.16000000000000014,100.0,29.225,28.803,44.216,43.981,0.0,0.0,100.0,0.0,0.0,0.0,0.0,3132.714285714286,3230.9,4454.75,4581.5,305.0555,304.6685,314.04725,313.63325,22.11722222222222,20.7095,22.1467,21.6249,314.999998,314.999998,324.999988,324.999988,99.55935714285714,99.50761666666666,99.57071428571429,99.55,0.08999999999999986,-0.05600000000000005,-0.10516666666666667,0.11883333333333333,-0.03999999999999915,-0.04999999999999716,1.42,1.432,39.233000000000004,30.4345,39.417,36.1555,55.831,35.927,60.522999999999996,53.6565,53.766999999999996,34.9805,59.055,51.937,52.902,34.4815,58.911,51.31933333333333,-0.09250000000000003,-0.07150000000000012,0.10800000000000001,0.11316000000000001,0.0,220.39499999999998,220.4,216.89333333333332,216.89333333333332,0.0,0.0
